<?xml version='1.0' encoding='UTF-8'?>
<france>
<villes>
<kp_ville>18825</kp_ville>
<region>Ile-de-France</region>
<departement>Yvelines</departement>
<ville>Aubergenville</ville>
<code_postal>78410</code_postal>
<lat>48.95976</lat>
<lng>1.85498</lng>
</villes>
<villes>
<kp_ville>18826</kp_ville>
<region>Ile-de-France</region>
<departement>Yvelines</departement>
<ville>Aulnay-sur-Mauldre</ville>
<code_postal>78126</code_postal>
<lat>48.92954</lat>
<lng>1.84146</lng>
</villes>
<villes>
<kp_ville>18827</kp_ville>
<region>Ile-de-France</region>
<departement>Yvelines</departement>
<ville>Bazemont</ville>
<code_postal>78580</code_postal>
<lat>48.92831</lat>
<lng>1.86627</lng>
</villes>
<villes>
<kp_ville>18828</kp_ville>
<region>Ile-de-France</region>
<departement>Yvelines</departement>
<ville>Bouafle</ville>
<code_postal>78410</code_postal>
<lat>48.96586</lat>
<lng>1.89766</lng>
</villes>
<villes>
<kp_ville>18829</kp_ville>
<region>Ile-de-France</region>
<departement>Yvelines</departement>
<ville>Ecquevilly</ville>
<code_postal>78920</code_postal>
<lat>48.95031</lat>
<lng>1.92305</lng>
</villes>
<villes>
<kp_ville>18830</kp_ville>
<region>Ile-de-France</region>
<departement>Yvelines</departement>
<ville>Flins-sur-Seine</ville>
<code_postal>78410</code_postal>
<lat>48.96149</lat>
<lng>1.87078</lng>
</villes>
<villes>
<kp_ville>18831</kp_ville>
<region>Ile-de-France</region>
<departement>Yvelines</departement>
<ville>Herbeville</ville>
<code_postal>78580</code_postal>
<lat>48.90533</lat>
<lng>1.88774</lng>
</villes>
<villes>
<kp_ville>18832</kp_ville>
<region>Ile-de-France</region>
<departement>Yvelines</departement>
<ville>Mareil-sur-Mauldre</ville>
<code_postal>78124</code_postal>
<lat>48.89329</lat>
<lng>1.8647</lng>
</villes>
<villes>
<kp_ville>18833</kp_ville>
<region>Ile-de-France</region>
<departement>Yvelines</departement>
<ville>Maule</ville>
<code_postal>78580</code_postal>
<lat>48.90932</lat>
<lng>1.84917</lng>
</villes>
<villes>
<kp_ville>18834</kp_ville>
<region>Ile-de-France</region>
<departement>Yvelines</departement>
<ville>Montainville</ville>
<code_postal>78124</code_postal>
<lat>48.88226</lat>
<lng>1.86131</lng>
</villes>
<villes>
<kp_ville>18835</kp_ville>
<region>Ile-de-France</region>
<departement>Yvelines</departement>
<ville>Nézel</ville>
<code_postal>78410</code_postal>
<lat>48.94514</lat>
<lng>1.8356</lng>
</villes>
<villes>
<kp_ville>18836</kp_ville>
<region>Ile-de-France</region>
<departement>Yvelines</departement>
<ville>Bennecourt</ville>
<code_postal>78270</code_postal>
<lat>49.03994</lat>
<lng>1.56334</lng>
</villes>
<villes>
<kp_ville>18837</kp_ville>
<region>Ile-de-France</region>
<departement>Yvelines</departement>
<ville>Blaru</ville>
<code_postal>78270</code_postal>
<lat>49.04836</lat>
<lng>1.47836</lng>
</villes>
<villes>
<kp_ville>18838</kp_ville>
<region>Ile-de-France</region>
<departement>Yvelines</departement>
<ville>Boissy-Mauvoisin</ville>
<code_postal>78200</code_postal>
<lat>48.96409</lat>
<lng>1.57962</lng>
</villes>
<villes>
<kp_ville>18839</kp_ville>
<region>Ile-de-France</region>
<departement>Yvelines</departement>
<ville>Bonnières-sur-Seine</ville>
<code_postal>78270</code_postal>
<lat>49.03766</lat>
<lng>1.58096</lng>
</villes>
<villes>
<kp_ville>18840</kp_ville>
<region>Ile-de-France</region>
<departement>Yvelines</departement>
<ville>Bréval</ville>
<code_postal>78980</code_postal>
<lat>48.94603</lat>
<lng>1.53397</lng>
</villes>
<villes>
<kp_ville>18841</kp_ville>
<region>Ile-de-France</region>
<departement>Yvelines</departement>
<ville>Chaufour-lès-Bonnières</ville>
<code_postal>78270</code_postal>
<lat>49.01605</lat>
<lng>1.48344</lng>
</villes>
<villes>
<kp_ville>18842</kp_ville>
<region>Ile-de-France</region>
<departement>Yvelines</departement>
<ville>Cravent</ville>
<code_postal>78270</code_postal>
<lat>48.99081</lat>
<lng>1.49073</lng>
</villes>
<villes>
<kp_ville>18843</kp_ville>
<region>Ile-de-France</region>
<departement>Yvelines</departement>
<ville>Favrieux</ville>
<code_postal>78200</code_postal>
<lat>48.94306</lat>
<lng>1.64168</lng>
</villes>
<villes>
<kp_ville>18844</kp_ville>
<region>Ile-de-France</region>
<departement>Yvelines</departement>
<ville>Fontenay-Mauvoisin</ville>
<code_postal>78200</code_postal>
<lat>48.96539</lat>
<lng>1.65268</lng>
</villes>
<villes>
<kp_ville>18845</kp_ville>
<region>Ile-de-France</region>
<departement>Yvelines</departement>
<ville>Freneuse</ville>
<code_postal>78840</code_postal>
<lat>49.0466</lat>
<lng>1.60346</lng>
</villes>
<villes>
<kp_ville>18846</kp_ville>
<region>Ile-de-France</region>
<departement>Yvelines</departement>
<ville>Gommecourt</ville>
<code_postal>78270</code_postal>
<lat>49.07722</lat>
<lng>1.5926</lng>
</villes>
<villes>
<kp_ville>18847</kp_ville>
<region>Ile-de-France</region>
<departement>Yvelines</departement>
<ville>Jeufosse</ville>
<code_postal>78270</code_postal>
<lat>49.03573</lat>
<lng>1.54559</lng>
</villes>
<villes>
<kp_ville>18848</kp_ville>
<region>Ile-de-France</region>
<departement>Yvelines</departement>
<ville>Jouy-Mauvoisin</ville>
<code_postal>78200</code_postal>
<lat>48.97488</lat>
<lng>1.64911</lng>
</villes>
<villes>
<kp_ville>18849</kp_ville>
<region>Ile-de-France</region>
<departement>Yvelines</departement>
<ville>La Villeneuve-en-Chevrie</ville>
<code_postal>78270</code_postal>
<lat>49.01478</lat>
<lng>1.52812</lng>
</villes>
<villes>
<kp_ville>18850</kp_ville>
<region>Ile-de-France</region>
<departement>Yvelines</departement>
<ville>Le Tertre-Saint-Denis</ville>
<code_postal>78980</code_postal>
<lat>48.9381</lat>
<lng>1.60624</lng>
</villes>
<villes>
<kp_ville>18851</kp_ville>
<region>Ile-de-France</region>
<departement>Yvelines</departement>
<ville>Limetz-Villez</ville>
<code_postal>78270</code_postal>
<lat>49.06135</lat>
<lng>1.5495</lng>
</villes>
<villes>
<kp_ville>18852</kp_ville>
<region>Ile-de-France</region>
<departement>Yvelines</departement>
<ville>Lommoye</ville>
<code_postal>78270</code_postal>
<lat>48.99363</lat>
<lng>1.51429</lng>
</villes>
<villes>
<kp_ville>18853</kp_ville>
<region>Ile-de-France</region>
<departement>Yvelines</departement>
<ville>Ménerville</ville>
<code_postal>78200</code_postal>
<lat>48.95396</lat>
<lng>1.60429</lng>
</villes>
<villes>
<kp_ville>18854</kp_ville>
<region>Ile-de-France</region>
<departement>Yvelines</departement>
<ville>Méricourt</ville>
<code_postal>78270</code_postal>
<lat>49.03657</lat>
<lng>1.62897</lng>
</villes>
<villes>
<kp_ville>18855</kp_ville>
<region>Ile-de-France</region>
<departement>Yvelines</departement>
<ville>Moisson</ville>
<code_postal>78840</code_postal>
<lat>49.0732</lat>
<lng>1.66983</lng>
</villes>
<villes>
<kp_ville>18856</kp_ville>
<region>Ile-de-France</region>
<departement>Yvelines</departement>
<ville>Mousseaux-sur-Seine</ville>
<code_postal>78270</code_postal>
<lat>49.04415</lat>
<lng>1.65056</lng>
</villes>
<villes>
<kp_ville>18857</kp_ville>
<region>Ile-de-France</region>
<departement>Yvelines</departement>
<ville>Neauphlette</ville>
<code_postal>78980</code_postal>
<lat>48.9316</lat>
<lng>1.52496</lng>
</villes>
<villes>
<kp_ville>18858</kp_ville>
<region>Ile-de-France</region>
<departement>Yvelines</departement>
<ville>Perdreauville</ville>
<code_postal>78200</code_postal>
<lat>48.96473</lat>
<lng>1.62993</lng>
</villes>
<villes>
<kp_ville>18859</kp_ville>
<region>Ile-de-France</region>
<departement>Yvelines</departement>
<ville>Port-Villez</ville>
<code_postal>78270</code_postal>
<lat>49.06406</lat>
<lng>1.52172</lng>
</villes>
<villes>
<kp_ville>18860</kp_ville>
<region>Ile-de-France</region>
<departement>Yvelines</departement>
<ville>Rolleboise</ville>
<code_postal>78270</code_postal>
<lat>49.01895</lat>
<lng>1.60739</lng>
</villes>
<villes>
<kp_ville>18861</kp_ville>
<region>Ile-de-France</region>
<departement>Yvelines</departement>
<ville>Saint-Illiers-la-Ville</ville>
<code_postal>78980</code_postal>
<lat>48.9766</lat>
<lng>1.53973</lng>
</villes>
<villes>
<kp_ville>18862</kp_ville>
<region>Ile-de-France</region>
<departement>Yvelines</departement>
<ville>Saint-Illiers-le-Bois</ville>
<code_postal>78980</code_postal>
<lat>48.96169</lat>
<lng>1.50365</lng>
</villes>
<villes>
<kp_ville>18863</kp_ville>
<region>Ile-de-France</region>
<departement>Yvelines</departement>
<ville>Andelu</ville>
<code_postal>78770</code_postal>
<lat>48.87894</lat>
<lng>1.82134</lng>
</villes>
<villes>
<kp_ville>18864</kp_ville>
<region>Ile-de-France</region>
<departement>Yvelines</departement>
<ville>Arnouville-lès-Mantes</ville>
<code_postal>78790</code_postal>
<lat>48.91076</lat>
<lng>1.73174</lng>
</villes>
<villes>
<kp_ville>18865</kp_ville>
<region>Ile-de-France</region>
<departement>Yvelines</departement>
<ville>Auffreville-Brasseuil</ville>
<code_postal>78930</code_postal>
<lat>48.95423</lat>
<lng>1.70997</lng>
</villes>
<villes>
<kp_ville>18866</kp_ville>
<region>Ile-de-France</region>
<departement>Yvelines</departement>
<ville>Boinville-en-Mantois</ville>
<code_postal>78930</code_postal>
<lat>48.93008</lat>
<lng>1.75639</lng>
</villes>
<villes>
<kp_ville>18867</kp_ville>
<region>Ile-de-France</region>
<departement>Yvelines</departement>
<ville>Boinvilliers</ville>
<code_postal>78200</code_postal>
<lat>48.91787</lat>
<lng>1.66115</lng>
</villes>
<villes>
<kp_ville>18868</kp_ville>
<region>Ile-de-France</region>
<departement>Yvelines</departement>
<ville>Breuil-Bois-Robert</ville>
<code_postal>78930</code_postal>
<lat>48.94478</lat>
<lng>1.71524</lng>
</villes>
<villes>
<kp_ville>18869</kp_ville>
<region>Ile-de-France</region>
<departement>Yvelines</departement>
<ville>Epône</ville>
<code_postal>78680</code_postal>
<lat>48.95725</lat>
<lng>1.81178</lng>
</villes>
<villes>
<kp_ville>18870</kp_ville>
<region>Ile-de-France</region>
<departement>Yvelines</departement>
<ville>Flacourt</ville>
<code_postal>78200</code_postal>
<lat>48.92858</lat>
<lng>1.64786</lng>
</villes>
<villes>
<kp_ville>18871</kp_ville>
<region>Ile-de-France</region>
<departement>Yvelines</departement>
<ville>Goussonville</ville>
<code_postal>78930</code_postal>
<lat>48.91986</lat>
<lng>1.76505</lng>
</villes>
<villes>
<kp_ville>18872</kp_ville>
<region>Ile-de-France</region>
<departement>Yvelines</departement>
<ville>Guerville</ville>
<code_postal>78930</code_postal>
<lat>48.94483</lat>
<lng>1.73465</lng>
</villes>
<villes>
<kp_ville>18873</kp_ville>
<region>Ile-de-France</region>
<departement>Yvelines</departement>
<ville>Hargeville</ville>
<code_postal>78790</code_postal>
<lat>48.89058</lat>
<lng>1.7426</lng>
</villes>
<villes>
<kp_ville>18874</kp_ville>
<region>Ile-de-France</region>
<departement>Yvelines</departement>
<ville>Jumeauville</ville>
<code_postal>78580</code_postal>
<lat>48.91095</lat>
<lng>1.78867</lng>
</villes>
<villes>
<kp_ville>18875</kp_ville>
<region>Ile-de-France</region>
<departement>Yvelines</departement>
<ville>La Falaise</ville>
<code_postal>78410</code_postal>
<lat>48.94439</lat>
<lng>1.83204</lng>
</villes>
<villes>
<kp_ville>18876</kp_ville>
<region>Ile-de-France</region>
<departement>Yvelines</departement>
<ville>Mézières-sur-Seine</ville>
<code_postal>78970</code_postal>
<lat>48.95925</lat>
<lng>1.80059</lng>
</villes>
<villes>
<kp_ville>18877</kp_ville>
<region>Ile-de-France</region>
<departement>Yvelines</departement>
<ville>Rosay</ville>
<code_postal>78790</code_postal>
<lat>48.91409</lat>
<lng>1.6796</lng>
</villes>
<villes>
<kp_ville>18878</kp_ville>
<region>Ile-de-France</region>
<departement>Yvelines</departement>
<ville>Soindres</ville>
<code_postal>78200</code_postal>
<lat>48.95722</lat>
<lng>1.67465</lng>
</villes>
<villes>
<kp_ville>18879</kp_ville>
<region>Ile-de-France</region>
<departement>Yvelines</departement>
<ville>Vert</ville>
<code_postal>78930</code_postal>
<lat>48.94098</lat>
<lng>1.69104</lng>
</villes>
<villes>
<kp_ville>18880</kp_ville>
<region>Ile-de-France</region>
<departement>Yvelines</departement>
<ville>Villette</ville>
<code_postal>78930</code_postal>
<lat>48.9276</lat>
<lng>1.69201</lng>
</villes>
<villes>
<kp_ville>18881</kp_ville>
<region>Ile-de-France</region>
<departement>Yvelines</departement>
<ville>Adainville</ville>
<code_postal>78113</code_postal>
<lat>48.72278</lat>
<lng>1.65307</lng>
</villes>
<villes>
<kp_ville>18882</kp_ville>
<region>Ile-de-France</region>
<departement>Yvelines</departement>
<ville>Bazainville</ville>
<code_postal>78550</code_postal>
<lat>48.80313</lat>
<lng>1.66902</lng>
</villes>
<villes>
<kp_ville>18883</kp_ville>
<region>Ile-de-France</region>
<departement>Yvelines</departement>
<ville>Boissets</ville>
<code_postal>78910</code_postal>
<lat>48.86231</lat>
<lng>1.57957</lng>
</villes>
<villes>
<kp_ville>18884</kp_ville>
<region>Ile-de-France</region>
<departement>Yvelines</departement>
<ville>Bourdonné</ville>
<code_postal>78113</code_postal>
<lat>48.75673</lat>
<lng>1.6633</lng>
</villes>
<villes>
<kp_ville>18885</kp_ville>
<region>Ile-de-France</region>
<departement>Yvelines</departement>
<ville>Civry-la-Forêt</ville>
<code_postal>78910</code_postal>
<lat>48.86799</lat>
<lng>1.62023</lng>
</villes>
<villes>
<kp_ville>18886</kp_ville>
<region>Ile-de-France</region>
<departement>Yvelines</departement>
<ville>Condé-sur-Vesgre</ville>
<code_postal>78113</code_postal>
<lat>48.74256</lat>
<lng>1.66119</lng>
</villes>
<villes>
<kp_ville>18887</kp_ville>
<region>Ile-de-France</region>
<departement>Yvelines</departement>
<ville>Courgent</ville>
<code_postal>78790</code_postal>
<lat>48.89119</lat>
<lng>1.66225</lng>
</villes>
<villes>
<kp_ville>18888</kp_ville>
<region>Ile-de-France</region>
<departement>Yvelines</departement>
<ville>Dammartin-en-Serve</ville>
<code_postal>78111</code_postal>
<lat>48.90371</lat>
<lng>1.61805</lng>
</villes>
<villes>
<kp_ville>18889</kp_ville>
<region>Ile-de-France</region>
<departement>Yvelines</departement>
<ville>Dannemarie</ville>
<code_postal>78550</code_postal>
<lat>48.76279</lat>
<lng>1.60624</lng>
</villes>
<villes>
<kp_ville>18890</kp_ville>
<region>Ile-de-France</region>
<departement>Yvelines</departement>
<ville>Flins-Neuve-Eglise</ville>
<code_postal>78790</code_postal>
<lat>48.89084</lat>
<lng>1.57834</lng>
</villes>
<villes>
<kp_ville>18891</kp_ville>
<region>Ile-de-France</region>
<departement>Yvelines</departement>
<ville>Gambais</ville>
<code_postal>78950</code_postal>
<lat>48.77341</lat>
<lng>1.67276</lng>
</villes>
<villes>
<kp_ville>18892</kp_ville>
<region>Ile-de-France</region>
<departement>Yvelines</departement>
<ville>Grandchamp</ville>
<code_postal>78113</code_postal>
<lat>48.72022</lat>
<lng>1.6199</lng>
</villes>
<villes>
<kp_ville>18893</kp_ville>
<region>Ile-de-France</region>
<departement>Yvelines</departement>
<ville>Gressey</ville>
<code_postal>78550</code_postal>
<lat>48.83152</lat>
<lng>1.60887</lng>
</villes>
<villes>
<kp_ville>18894</kp_ville>
<region>Ile-de-France</region>
<departement>Yvelines</departement>
<ville>Houdan</ville>
<code_postal>78550</code_postal>
<lat>48.78914</lat>
<lng>1.60166</lng>
</villes>
<villes>
<kp_ville>18895</kp_ville>
<region>Ile-de-France</region>
<departement>Yvelines</departement>
<ville>La Hauteville</ville>
<code_postal>78113</code_postal>
<lat>48.7044</lat>
<lng>1.61809</lng>
</villes>
<villes>
<kp_ville>18896</kp_ville>
<region>Ile-de-France</region>
<departement>Yvelines</departement>
<ville>Le Tartre-Gaudran</ville>
<code_postal>78113</code_postal>
<lat>48.70008</lat>
<lng>1.59578</lng>
</villes>
<villes>
<kp_ville>18897</kp_ville>
<region>Ile-de-France</region>
<departement>Yvelines</departement>
<ville>Longnes</ville>
<code_postal>78980</code_postal>
<lat>48.92184</lat>
<lng>1.58712</lng>
</villes>
<villes>
<kp_ville>18898</kp_ville>
<region>Ile-de-France</region>
<departement>Yvelines</departement>
<ville>Maulette</ville>
<code_postal>78550</code_postal>
<lat>48.79229</lat>
<lng>1.61858</lng>
</villes>
<villes>
<kp_ville>18899</kp_ville>
<region>Ile-de-France</region>
<departement>Yvelines</departement>
<ville>Mondreville</ville>
<code_postal>78980</code_postal>
<lat>48.9029</lat>
<lng>1.55239</lng>
</villes>
<villes>
<kp_ville>18900</kp_ville>
<region>Ile-de-France</region>
<departement>Yvelines</departement>
<ville>Montchauvet</ville>
<code_postal>78790</code_postal>
<lat>48.89217</lat>
<lng>1.63104</lng>
</villes>
<villes>
<kp_ville>18901</kp_ville>
<region>Ile-de-France</region>
<departement>Yvelines</departement>
<ville>Mulcent</ville>
<code_postal>78790</code_postal>
<lat>48.87887</lat>
<lng>1.65205</lng>
</villes>
<villes>
<kp_ville>18902</kp_ville>
<region>Ile-de-France</region>
<departement>Yvelines</departement>
<ville>Orgerus</ville>
<code_postal>78910</code_postal>
<lat>48.8388</lat>
<lng>1.69725</lng>
</villes>
<villes>
<kp_ville>18903</kp_ville>
<region>Ile-de-France</region>
<departement>Yvelines</departement>
<ville>Orvilliers</ville>
<code_postal>78910</code_postal>
<lat>48.85858</lat>
<lng>1.64353</lng>
</villes>
<villes>
<kp_ville>18904</kp_ville>
<region>Ile-de-France</region>
<departement>Yvelines</departement>
<ville>Osmoy</ville>
<code_postal>78910</code_postal>
<lat>48.86254</lat>
<lng>1.71632</lng>
</villes>
<villes>
<kp_ville>18905</kp_ville>
<region>Ile-de-France</region>
<departement>Yvelines</departement>
<ville>Prunay-le-Temple</ville>
<code_postal>78910</code_postal>
<lat>48.86203</lat>
<lng>1.6722</lng>
</villes>
<villes>
<kp_ville>18906</kp_ville>
<region>Ile-de-France</region>
<departement>Yvelines</departement>
<ville>Richebourg</ville>
<code_postal>78550</code_postal>
<lat>48.81833</lat>
<lng>1.63329</lng>
</villes>
<villes>
<kp_ville>18907</kp_ville>
<region>Ile-de-France</region>
<departement>Yvelines</departement>
<ville>Saint-Martin-des-Champs</ville>
<code_postal>78790</code_postal>
<lat>48.8825</lat>
<lng>1.71748</lng>
</villes>
<villes>
<kp_ville>18908</kp_ville>
<region>Ile-de-France</region>
<departement>Yvelines</departement>
<ville>Septeuil</ville>
<code_postal>78790</code_postal>
<lat>48.8928</lat>
<lng>1.68058</lng>
</villes>
<villes>
<kp_ville>18909</kp_ville>
<region>Ile-de-France</region>
<departement>Yvelines</departement>
<ville>Tacoignières</ville>
<code_postal>78910</code_postal>
<lat>48.83638</lat>
<lng>1.67528</lng>
</villes>
<villes>
<kp_ville>18910</kp_ville>
<region>Ile-de-France</region>
<departement>Yvelines</departement>
<ville>Tilly</ville>
<code_postal>78790</code_postal>
<lat>48.88206</lat>
<lng>1.57601</lng>
</villes>
<villes>
<kp_ville>18911</kp_ville>
<region>Ile-de-France</region>
<departement>Yvelines</departement>
<ville>Brueil-en-Vexin</ville>
<code_postal>78440</code_postal>
<lat>49.03097</lat>
<lng>1.81976</lng>
</villes>
<villes>
<kp_ville>18912</kp_ville>
<region>Ile-de-France</region>
<departement>Yvelines</departement>
<ville>Drocourt</ville>
<code_postal>78440</code_postal>
<lat>49.05533</lat>
<lng>1.76696</lng>
</villes>
<villes>
<kp_ville>18913</kp_ville>
<region>Ile-de-France</region>
<departement>Yvelines</departement>
<ville>Follainville-Dennemont</ville>
<code_postal>78520</code_postal>
<lat>49.02262</lat>
<lng>1.71233</lng>
</villes>
<villes>
<kp_ville>18914</kp_ville>
<region>Ile-de-France</region>
<departement>Yvelines</departement>
<ville>Fontenay-Saint-Père</ville>
<code_postal>78440</code_postal>
<lat>49.02683</lat>
<lng>1.75144</lng>
</villes>
<villes>
<kp_ville>18915</kp_ville>
<region>Ile-de-France</region>
<departement>Yvelines</departement>
<ville>Gargenville</ville>
<code_postal>78440</code_postal>
<lat>48.99416</lat>
<lng>1.81148</lng>
</villes>
<villes>
<kp_ville>18916</kp_ville>
<region>Ile-de-France</region>
<departement>Yvelines</departement>
<ville>Guernes</ville>
<code_postal>78520</code_postal>
<lat>49.01034</lat>
<lng>1.63627</lng>
</villes>
<villes>
<kp_ville>18917</kp_ville>
<region>Ile-de-France</region>
<departement>Yvelines</departement>
<ville>Guitrancourt</ville>
<code_postal>78440</code_postal>
<lat>49.00852</lat>
<lng>1.77927</lng>
</villes>
<villes>
<kp_ville>18918</kp_ville>
<region>Ile-de-France</region>
<departement>Yvelines</departement>
<ville>Issou</ville>
<code_postal>78440</code_postal>
<lat>48.9878</lat>
<lng>1.79431</lng>
</villes>
<villes>
<kp_ville>18919</kp_ville>
<region>Ile-de-France</region>
<departement>Yvelines</departement>
<ville>Jambville</ville>
<code_postal>78440</code_postal>
<lat>49.0453</lat>
<lng>1.85298</lng>
</villes>
<villes>
<kp_ville>18920</kp_ville>
<region>Ile-de-France</region>
<departement>Yvelines</departement>
<ville>Juziers</ville>
<code_postal>78820</code_postal>
<lat>48.99334</lat>
<lng>1.84573</lng>
</villes>
<villes>
<kp_ville>18921</kp_ville>
<region>Ile-de-France</region>
<departement>Yvelines</departement>
<ville>Lainville-en-Vexin</ville>
<code_postal>78440</code_postal>
<lat>49.05943</lat>
<lng>1.81599</lng>
</villes>
<villes>
<kp_ville>18922</kp_ville>
<region>Ile-de-France</region>
<departement>Yvelines</departement>
<ville>Limay</ville>
<code_postal>78520</code_postal>
<lat>48.99446</lat>
<lng>1.73162</lng>
</villes>
<villes>
<kp_ville>18923</kp_ville>
<region>Ile-de-France</region>
<departement>Yvelines</departement>
<ville>Montalet-le-Bois</ville>
<code_postal>78440</code_postal>
<lat>49.04691</lat>
<lng>1.82668</lng>
</villes>
<villes>
<kp_ville>18924</kp_ville>
<region>Ile-de-France</region>
<departement>Yvelines</departement>
<ville>Oinville-sur-Montcient</ville>
<code_postal>78250</code_postal>
<lat>49.02625</lat>
<lng>1.84941</lng>
</villes>
<villes>
<kp_ville>18925</kp_ville>
<region>Ile-de-France</region>
<departement>Yvelines</departement>
<ville>Porcheville</ville>
<code_postal>78440</code_postal>
<lat>48.9709</lat>
<lng>1.77811</lng>
</villes>
<villes>
<kp_ville>18926</kp_ville>
<region>Ile-de-France</region>
<departement>Yvelines</departement>
<ville>Sailly</ville>
<code_postal>78440</code_postal>
<lat>49.04067</lat>
<lng>1.80064</lng>
</villes>
<villes>
<kp_ville>18927</kp_ville>
<region>Ile-de-France</region>
<departement>Yvelines</departement>
<ville>Saint-Martin-la-Garenne</ville>
<code_postal>78520</code_postal>
<lat>49.04063</lat>
<lng>1.6887</lng>
</villes>
<villes>
<kp_ville>18928</kp_ville>
<region>Ile-de-France</region>
<departement>Yvelines</departement>
<ville>Mantes-la-Jolie</ville>
<code_postal>78200</code_postal>
<lat>48.99036</lat>
<lng>1.71936</lng>
</villes>
<villes>
<kp_ville>18929</kp_ville>
<region>Ile-de-France</region>
<departement>Yvelines</departement>
<ville>Buchelay</ville>
<code_postal>78200</code_postal>
<lat>48.9804</lat>
<lng>1.67204</lng>
</villes>
<villes>
<kp_ville>18930</kp_ville>
<region>Ile-de-France</region>
<departement>Yvelines</departement>
<ville>Magnanville</ville>
<code_postal>78200</code_postal>
<lat>48.9724</lat>
<lng>1.68745</lng>
</villes>
<villes>
<kp_ville>18931</kp_ville>
<region>Ile-de-France</region>
<departement>Yvelines</departement>
<ville>Mantes-la-Ville</ville>
<code_postal>78711</code_postal>
<lat>48.97794</lat>
<lng>1.71434</lng>
</villes>
<villes>
<kp_ville>18932</kp_ville>
<region>Ile-de-France</region>
<departement>Yvelines</departement>
<ville>Rosny-sur-Seine</ville>
<code_postal>78710</code_postal>
<lat>48.99878</lat>
<lng>1.63107</lng>
</villes>
<villes>
<kp_ville>18933</kp_ville>
<region>Ile-de-France</region>
<departement>Yvelines</departement>
<ville>Chapet</ville>
<code_postal>78130</code_postal>
<lat>48.96612</lat>
<lng>1.93424</lng>
</villes>
<villes>
<kp_ville>18934</kp_ville>
<region>Ile-de-France</region>
<departement>Yvelines</departement>
<ville>Evecquemont</ville>
<code_postal>78740</code_postal>
<lat>49.01594</lat>
<lng>1.94478</lng>
</villes>
<villes>
<kp_ville>18935</kp_ville>
<region>Ile-de-France</region>
<departement>Yvelines</departement>
<ville>Gaillon-sur-Montcient</ville>
<code_postal>78250</code_postal>
<lat>49.02449</lat>
<lng>1.89244</lng>
</villes>
<villes>
<kp_ville>18936</kp_ville>
<region>Ile-de-France</region>
<departement>Yvelines</departement>
<ville>Hardricourt</ville>
<code_postal>78250</code_postal>
<lat>49.00801</lat>
<lng>1.89402</lng>
</villes>
<villes>
<kp_ville>18937</kp_ville>
<region>Ile-de-France</region>
<departement>Yvelines</departement>
<ville>Les Mureaux</ville>
<code_postal>78130</code_postal>
<lat>48.99262</lat>
<lng>1.90724</lng>
</villes>
<villes>
<kp_ville>18938</kp_ville>
<region>Ile-de-France</region>
<departement>Yvelines</departement>
<ville>Meulan</ville>
<code_postal>78250</code_postal>
<lat>49.0062</lat>
<lng>1.90833</lng>
</villes>
<villes>
<kp_ville>18939</kp_ville>
<region>Ile-de-France</region>
<departement>Yvelines</departement>
<ville>Mézy-sur-Seine</ville>
<code_postal>78250</code_postal>
<lat>49.00071</lat>
<lng>1.88262</lng>
</villes>
<villes>
<kp_ville>18940</kp_ville>
<region>Ile-de-France</region>
<departement>Yvelines</departement>
<ville>Tessancourt-sur-Aubette</ville>
<code_postal>78250</code_postal>
<lat>49.02426</lat>
<lng>1.92029</lng>
</villes>
<villes>
<kp_ville>18941</kp_ville>
<region>Ile-de-France</region>
<departement>Yvelines</departement>
<ville>Vaux-sur-Seine</ville>
<code_postal>78740</code_postal>
<lat>49.00932</lat>
<lng>1.9564</lng>
</villes>
<villes>
<kp_ville>18942</kp_ville>
<region>Ile-de-France</region>
<departement>Yvelines</departement>
<ville>Cernay-la-Ville</ville>
<code_postal>78720</code_postal>
<lat>48.673</lat>
<lng>1.97166</lng>
</villes>
<villes>
<kp_ville>18943</kp_ville>
<region>Ile-de-France</region>
<departement>Yvelines</departement>
<ville>Chevreuse</ville>
<code_postal>78460</code_postal>
<lat>48.70772</lat>
<lng>2.03955</lng>
</villes>
<villes>
<kp_ville>18944</kp_ville>
<region>Ile-de-France</region>
<departement>Yvelines</departement>
<ville>Choisel</ville>
<code_postal>78460</code_postal>
<lat>48.68741</lat>
<lng>2.01831</lng>
</villes>
<villes>
<kp_ville>18945</kp_ville>
<region>Ile-de-France</region>
<departement>Yvelines</departement>
<ville>Dampierre-en-Yvelines</ville>
<code_postal>78720</code_postal>
<lat>48.70534</lat>
<lng>1.98619</lng>
</villes>
<villes>
<kp_ville>18946</kp_ville>
<region>Ile-de-France</region>
<departement>Yvelines</departement>
<ville>Le Mesnil-Saint-Denis</ville>
<code_postal>78320</code_postal>
<lat>48.74321</lat>
<lng>1.96043</lng>
</villes>
<villes>
<kp_ville>18947</kp_ville>
<region>Ile-de-France</region>
<departement>Yvelines</departement>
<ville>Lévis-Saint-Nom</ville>
<code_postal>78320</code_postal>
<lat>48.72133</lat>
<lng>1.9485</lng>
</villes>
<villes>
<kp_ville>18948</kp_ville>
<region>Ile-de-France</region>
<departement>Yvelines</departement>
<ville>Magny-les-Hameaux</ville>
<code_postal>78114</code_postal>
<lat>48.7241</lat>
<lng>2.08762</lng>
</villes>
<villes>
<kp_ville>18949</kp_ville>
<region>Ile-de-France</region>
<departement>Yvelines</departement>
<ville>Maincourt-sur-Yvette</ville>
<code_postal>78720</code_postal>
<lat>48.7146</lat>
<lng>1.96799</lng>
</villes>
<villes>
<kp_ville>18950</kp_ville>
<region>Ile-de-France</region>
<departement>Yvelines</departement>
<ville>Milon-la-Chapelle</ville>
<code_postal>78470</code_postal>
<lat>48.72652</lat>
<lng>2.04888</lng>
</villes>
<villes>
<kp_ville>18951</kp_ville>
<region>Ile-de-France</region>
<departement>Yvelines</departement>
<ville>Saint-Forget</ville>
<code_postal>78720</code_postal>
<lat>48.70992</lat>
<lng>1.99327</lng>
</villes>
<villes>
<kp_ville>18952</kp_ville>
<region>Ile-de-France</region>
<departement>Yvelines</departement>
<ville>Saint-Lambert</ville>
<code_postal>78470</code_postal>
<lat>48.73322</lat>
<lng>2.01947</lng>
</villes>
<villes>
<kp_ville>18953</kp_ville>
<region>Ile-de-France</region>
<departement>Yvelines</departement>
<ville>Saint-Rémy-lès-Chevreuse</ville>
<code_postal>78470</code_postal>
<lat>48.70206</lat>
<lng>2.06955</lng>
</villes>
<villes>
<kp_ville>18954</kp_ville>
<region>Ile-de-France</region>
<departement>Yvelines</departement>
<ville>Senlisse</ville>
<code_postal>78720</code_postal>
<lat>48.68758</lat>
<lng>1.98099</lng>
</villes>
<villes>
<kp_ville>18955</kp_ville>
<region>Ile-de-France</region>
<departement>Yvelines</departement>
<ville>Voisins-le-Bretonneux</ville>
<code_postal>78960</code_postal>
<lat>48.75954</lat>
<lng>2.03902</lng>
</villes>
<villes>
<kp_ville>18956</kp_ville>
<region>Ile-de-France</region>
<departement>Yvelines</departement>
<ville>Coignières</ville>
<code_postal>78310</code_postal>
<lat>48.74818</lat>
<lng>1.91848</lng>
</villes>
<villes>
<kp_ville>18957</kp_ville>
<region>Ile-de-France</region>
<departement>Yvelines</departement>
<ville>Elancourt</ville>
<code_postal>78990</code_postal>
<lat>48.78254</lat>
<lng>1.96011</lng>
</villes>
<villes>
<kp_ville>18958</kp_ville>
<region>Ile-de-France</region>
<departement>Yvelines</departement>
<ville>La Verrière</ville>
<code_postal>78320</code_postal>
<lat>48.75479</lat>
<lng>1.9553</lng>
</villes>
<villes>
<kp_ville>18959</kp_ville>
<region>Ile-de-France</region>
<departement>Yvelines</departement>
<ville>Maurepas</ville>
<code_postal>78310</code_postal>
<lat>48.76297</lat>
<lng>1.94671</lng>
</villes>
<villes>
<kp_ville>18960</kp_ville>
<region>Ile-de-France</region>
<departement>Yvelines</departement>
<ville>Auteuil</ville>
<code_postal>78770</code_postal>
<lat>48.84167</lat>
<lng>1.81773</lng>
</villes>
<villes>
<kp_ville>18961</kp_ville>
<region>Ile-de-France</region>
<departement>Yvelines</departement>
<ville>Autouillet</ville>
<code_postal>78770</code_postal>
<lat>48.84846</lat>
<lng>1.8043</lng>
</villes>
<villes>
<kp_ville>18962</kp_ville>
<region>Ile-de-France</region>
<departement>Yvelines</departement>
<ville>Bazoches-sur-Guyonne</ville>
<code_postal>78490</code_postal>
<lat>48.77841</lat>
<lng>1.85698</lng>
</villes>
<villes>
<kp_ville>18963</kp_ville>
<region>Ile-de-France</region>
<departement>Yvelines</departement>
<ville>Béhoust</ville>
<code_postal>78910</code_postal>
<lat>48.83058</lat>
<lng>1.72121</lng>
</villes>
<villes>
<kp_ville>18964</kp_ville>
<region>Ile-de-France</region>
<departement>Yvelines</departement>
<ville>Beynes</ville>
<code_postal>78650</code_postal>
<lat>48.8563</lat>
<lng>1.87334</lng>
</villes>
<villes>
<kp_ville>18965</kp_ville>
<region>Ile-de-France</region>
<departement>Yvelines</departement>
<ville>Boissy-sans-Avoir</ville>
<code_postal>78490</code_postal>
<lat>48.82019</lat>
<lng>1.79407</lng>
</villes>
<villes>
<kp_ville>18966</kp_ville>
<region>Ile-de-France</region>
<departement>Yvelines</departement>
<ville>Flexanville</ville>
<code_postal>78910</code_postal>
<lat>48.85379</lat>
<lng>1.73729</lng>
</villes>
<villes>
<kp_ville>18967</kp_ville>
<region>Ile-de-France</region>
<departement>Yvelines</departement>
<ville>Galluis</ville>
<code_postal>78490</code_postal>
<lat>48.79661</lat>
<lng>1.7947</lng>
</villes>
<villes>
<kp_ville>18968</kp_ville>
<region>Ile-de-France</region>
<departement>Yvelines</departement>
<ville>Garancières</ville>
<code_postal>78890</code_postal>
<lat>48.82372</lat>
<lng>1.75748</lng>
</villes>
<villes>
<kp_ville>18969</kp_ville>
<region>Ile-de-France</region>
<departement>Yvelines</departement>
<ville>Goupillières</ville>
<code_postal>78770</code_postal>
<lat>48.87873</lat>
<lng>1.75978</lng>
</villes>
<villes>
<kp_ville>18970</kp_ville>
<region>Ile-de-France</region>
<departement>Yvelines</departement>
<ville>Grosrouvre</ville>
<code_postal>78490</code_postal>
<lat>48.78356</lat>
<lng>1.7665</lng>
</villes>
<villes>
<kp_ville>18971</kp_ville>
<region>Ile-de-France</region>
<departement>Yvelines</departement>
<ville>Jouars-Pontchartrain</ville>
<code_postal>78760</code_postal>
<lat>48.8033</lat>
<lng>1.90219</lng>
</villes>
<villes>
<kp_ville>18972</kp_ville>
<region>Ile-de-France</region>
<departement>Yvelines</departement>
<ville>La Queue-les-Yvelines</ville>
<code_postal>78940</code_postal>
<lat>48.80531</lat>
<lng>1.76521</lng>
</villes>
<villes>
<kp_ville>18973</kp_ville>
<region>Ile-de-France</region>
<departement>Yvelines</departement>
<ville>Le Tremblay-sur-Mauldre</ville>
<code_postal>78490</code_postal>
<lat>48.77782</lat>
<lng>1.87695</lng>
</villes>
<villes>
<kp_ville>18974</kp_ville>
<region>Ile-de-France</region>
<departement>Yvelines</departement>
<ville>Les Mesnuls</ville>
<code_postal>78490</code_postal>
<lat>48.75794</lat>
<lng>1.83754</lng>
</villes>
<villes>
<kp_ville>18975</kp_ville>
<region>Ile-de-France</region>
<departement>Yvelines</departement>
<ville>Marcq</ville>
<code_postal>78770</code_postal>
<lat>48.86132</lat>
<lng>1.81566</lng>
</villes>
<villes>
<kp_ville>18976</kp_ville>
<region>Ile-de-France</region>
<departement>Yvelines</departement>
<ville>Mareil-le-Guyon</ville>
<code_postal>78490</code_postal>
<lat>48.79041</lat>
<lng>1.85218</lng>
</villes>
<villes>
<kp_ville>18977</kp_ville>
<region>Ile-de-France</region>
<departement>Yvelines</departement>
<ville>Méré</ville>
<code_postal>78490</code_postal>
<lat>48.78749</lat>
<lng>1.81955</lng>
</villes>
<villes>
<kp_ville>18978</kp_ville>
<region>Ile-de-France</region>
<departement>Yvelines</departement>
<ville>Millemont</ville>
<code_postal>78940</code_postal>
<lat>48.81098</lat>
<lng>1.7437</lng>
</villes>
<villes>
<kp_ville>18979</kp_ville>
<region>Ile-de-France</region>
<departement>Yvelines</departement>
<ville>Montfort-l'Amaury</ville>
<code_postal>78490</code_postal>
<lat>48.77669</lat>
<lng>1.80761</lng>
</villes>
<villes>
<kp_ville>18980</kp_ville>
<region>Ile-de-France</region>
<departement>Yvelines</departement>
<ville>Neauphle-le-Château</ville>
<code_postal>78640</code_postal>
<lat>48.8143</lat>
<lng>1.89957</lng>
</villes>
<villes>
<kp_ville>18981</kp_ville>
<region>Ile-de-France</region>
<departement>Yvelines</departement>
<ville>Neauphle-le-Vieux</ville>
<code_postal>78640</code_postal>
<lat>48.81498</lat>
<lng>1.86315</lng>
</villes>
<villes>
<kp_ville>18982</kp_ville>
<region>Ile-de-France</region>
<departement>Yvelines</departement>
<ville>Saint-Germain-de-la-Grange</ville>
<code_postal>78640</code_postal>
<lat>48.83389</lat>
<lng>1.89867</lng>
</villes>
<villes>
<kp_ville>18983</kp_ville>
<region>Ile-de-France</region>
<departement>Yvelines</departement>
<ville>Saint-Rémy-l'Honoré</ville>
<code_postal>78690</code_postal>
<lat>48.75607</lat>
<lng>1.88155</lng>
</villes>
<villes>
<kp_ville>18984</kp_ville>
<region>Ile-de-France</region>
<departement>Yvelines</departement>
<ville>Saulx-Marchais</ville>
<code_postal>78650</code_postal>
<lat>48.841</lat>
<lng>1.83542</lng>
</villes>
<villes>
<kp_ville>18985</kp_ville>
<region>Ile-de-France</region>
<departement>Yvelines</departement>
<ville>Thoiry</ville>
<code_postal>78770</code_postal>
<lat>48.8651</lat>
<lng>1.79457</lng>
</villes>
<villes>
<kp_ville>18986</kp_ville>
<region>Ile-de-France</region>
<departement>Yvelines</departement>
<ville>Vicq</ville>
<code_postal>78490</code_postal>
<lat>48.81501</lat>
<lng>1.83568</lng>
</villes>
<villes>
<kp_ville>18987</kp_ville>
<region>Ile-de-France</region>
<departement>Yvelines</departement>
<ville>Villiers-le-Mahieu</ville>
<code_postal>78770</code_postal>
<lat>48.85924</lat>
<lng>1.77133</lng>
</villes>
<villes>
<kp_ville>18988</kp_ville>
<region>Ile-de-France</region>
<departement>Yvelines</departement>
<ville>Villiers-Saint-Fréderic</ville>
<code_postal>78640</code_postal>
<lat>48.82147</lat>
<lng>1.88819</lng>
</villes>
<villes>
<kp_ville>18989</kp_ville>
<region>Ile-de-France</region>
<departement>Yvelines</departement>
<ville>Auffargis</ville>
<code_postal>78610</code_postal>
<lat>48.70231</lat>
<lng>1.88497</lng>
</villes>
<villes>
<kp_ville>18990</kp_ville>
<region>Ile-de-France</region>
<departement>Yvelines</departement>
<ville>Emancé</ville>
<code_postal>78125</code_postal>
<lat>48.5893</lat>
<lng>1.73022</lng>
</villes>
<villes>
<kp_ville>18991</kp_ville>
<region>Ile-de-France</region>
<departement>Yvelines</departement>
<ville>Gambaiseuil</ville>
<code_postal>78490</code_postal>
<lat>48.75582</lat>
<lng>1.73197</lng>
</villes>
<villes>
<kp_ville>18992</kp_ville>
<region>Ile-de-France</region>
<departement>Yvelines</departement>
<ville>Gazeran</ville>
<code_postal>78125</code_postal>
<lat>48.63398</lat>
<lng>1.77291</lng>
</villes>
<villes>
<kp_ville>18993</kp_ville>
<region>Ile-de-France</region>
<departement>Yvelines</departement>
<ville>Hermeray</ville>
<code_postal>78125</code_postal>
<lat>48.63737</lat>
<lng>1.67539</lng>
</villes>
<villes>
<kp_ville>18994</kp_ville>
<region>Ile-de-France</region>
<departement>Yvelines</departement>
<ville>La Boissière-Ecole</ville>
<code_postal>78125</code_postal>
<lat>48.68024</lat>
<lng>1.65204</lng>
</villes>
<villes>
<kp_ville>18995</kp_ville>
<region>Ile-de-France</region>
<departement>Yvelines</departement>
<ville>Le Perray-en-Yvelines</ville>
<code_postal>78610</code_postal>
<lat>48.69422</lat>
<lng>1.85386</lng>
</villes>
<villes>
<kp_ville>18996</kp_ville>
<region>Ile-de-France</region>
<departement>Yvelines</departement>
<ville>Les Bréviaires</ville>
<code_postal>78610</code_postal>
<lat>48.70727</lat>
<lng>1.81319</lng>
</villes>
<villes>
<kp_ville>18997</kp_ville>
<region>Ile-de-France</region>
<departement>Yvelines</departement>
<ville>Les Essarts-le-Roi</ville>
<code_postal>78690</code_postal>
<lat>48.71711</lat>
<lng>1.89376</lng>
</villes>
<villes>
<kp_ville>18998</kp_ville>
<region>Ile-de-France</region>
<departement>Yvelines</departement>
<ville>Mittainville</ville>
<code_postal>78125</code_postal>
<lat>48.66948</lat>
<lng>1.64441</lng>
</villes>
<villes>
<kp_ville>18999</kp_ville>
<region>Ile-de-France</region>
<departement>Yvelines</departement>
<ville>Orcemont</ville>
<code_postal>78125</code_postal>
<lat>48.58784</lat>
<lng>1.80935</lng>
</villes>
<villes>
<kp_ville>19000</kp_ville>
<region>Ile-de-France</region>
<departement>Yvelines</departement>
<ville>Orphin</ville>
<code_postal>78125</code_postal>
<lat>48.57943</lat>
<lng>1.78235</lng>
</villes>
<villes>
<kp_ville>19001</kp_ville>
<region>Ile-de-France</region>
<departement>Yvelines</departement>
<ville>Poigny-la-Forêt</ville>
<code_postal>78125</code_postal>
<lat>48.67903</lat>
<lng>1.75412</lng>
</villes>
<villes>
<kp_ville>19002</kp_ville>
<region>Ile-de-France</region>
<departement>Yvelines</departement>
<ville>Raizeux</ville>
<code_postal>78125</code_postal>
<lat>48.62394</lat>
<lng>1.68314</lng>
</villes>
<villes>
<kp_ville>19003</kp_ville>
<region>Ile-de-France</region>
<departement>Yvelines</departement>
<ville>Rambouillet</ville>
<code_postal>78120</code_postal>
<lat>48.64296</lat>
<lng>1.82582</lng>
</villes>
<villes>
<kp_ville>19004</kp_ville>
<region>Ile-de-France</region>
<departement>Yvelines</departement>
<ville>Saint-Hilarion</ville>
<code_postal>78125</code_postal>
<lat>48.61938</lat>
<lng>1.73564</lng>
</villes>
<villes>
<kp_ville>19005</kp_ville>
<region>Ile-de-France</region>
<departement>Yvelines</departement>
<ville>Saint-Léger-en-Yvelines</ville>
<code_postal>78610</code_postal>
<lat>48.72188</lat>
<lng>1.76479</lng>
</villes>
<villes>
<kp_ville>19006</kp_ville>
<region>Ile-de-France</region>
<departement>Yvelines</departement>
<ville>Vieille-Eglise-en-Yvelines</ville>
<code_postal>78125</code_postal>
<lat>48.67038</lat>
<lng>1.87491</lng>
</villes>
<villes>
<kp_ville>19007</kp_ville>
<region>Ile-de-France</region>
<departement>Yvelines</departement>
<ville>Ablis</ville>
<code_postal>78660</code_postal>
<lat>48.51558</lat>
<lng>1.83561</lng>
</villes>
<villes>
<kp_ville>19008</kp_ville>
<region>Ile-de-France</region>
<departement>Yvelines</departement>
<ville>Allainville</ville>
<code_postal>78660</code_postal>
<lat>48.4566</lat>
<lng>1.89678</lng>
</villes>
<villes>
<kp_ville>19009</kp_ville>
<region>Ile-de-France</region>
<departement>Yvelines</departement>
<ville>Boinville-le-Gaillard</ville>
<code_postal>78660</code_postal>
<lat>48.4934</lat>
<lng>1.87147</lng>
</villes>
<villes>
<kp_ville>19010</kp_ville>
<region>Ile-de-France</region>
<departement>Yvelines</departement>
<ville>Bonnelles</ville>
<code_postal>78830</code_postal>
<lat>48.61937</lat>
<lng>2.0261</lng>
</villes>
<villes>
<kp_ville>19011</kp_ville>
<region>Ile-de-France</region>
<departement>Yvelines</departement>
<ville>Bullion</ville>
<code_postal>78830</code_postal>
<lat>48.62209</lat>
<lng>1.9957</lng>
</villes>
<villes>
<kp_ville>19012</kp_ville>
<region>Ile-de-France</region>
<departement>Yvelines</departement>
<ville>Clairefontaine-en-Yvelines</ville>
<code_postal>78120</code_postal>
<lat>48.6126</lat>
<lng>1.90917</lng>
</villes>
<villes>
<kp_ville>19013</kp_ville>
<region>Ile-de-France</region>
<departement>Yvelines</departement>
<ville>La Celle-les-Bordes</ville>
<code_postal>78720</code_postal>
<lat>48.63755</lat>
<lng>1.95378</lng>
</villes>
<villes>
<kp_ville>19014</kp_ville>
<region>Ile-de-France</region>
<departement>Yvelines</departement>
<ville>Longvilliers</ville>
<code_postal>78730</code_postal>
<lat>48.57853</lat>
<lng>1.99156</lng>
</villes>
<villes>
<kp_ville>19015</kp_ville>
<region>Ile-de-France</region>
<departement>Yvelines</departement>
<ville>Orsonville</ville>
<code_postal>78660</code_postal>
<lat>48.47805</lat>
<lng>1.83429</lng>
</villes>
<villes>
<kp_ville>19016</kp_ville>
<region>Ile-de-France</region>
<departement>Yvelines</departement>
<ville>Paray-Douaville</ville>
<code_postal>78660</code_postal>
<lat>48.46236</lat>
<lng>1.87652</lng>
</villes>
<villes>
<kp_ville>19017</kp_ville>
<region>Ile-de-France</region>
<departement>Yvelines</departement>
<ville>Ponthévrard</ville>
<code_postal>78730</code_postal>
<lat>48.55142</lat>
<lng>1.90992</lng>
</villes>
<villes>
<kp_ville>19018</kp_ville>
<region>Ile-de-France</region>
<departement>Yvelines</departement>
<ville>Prunay-en-Yvelines</ville>
<code_postal>78660</code_postal>
<lat>48.52697</lat>
<lng>1.79602</lng>
</villes>
<villes>
<kp_ville>19019</kp_ville>
<region>Ile-de-France</region>
<departement>Yvelines</departement>
<ville>Rochefort-en-Yvelines</ville>
<code_postal>78730</code_postal>
<lat>48.58541</lat>
<lng>1.98821</lng>
</villes>
<villes>
<kp_ville>19020</kp_ville>
<region>Ile-de-France</region>
<departement>Yvelines</departement>
<ville>Saint-Arnoult-en-Yvelines</ville>
<code_postal>78730</code_postal>
<lat>48.57148</lat>
<lng>1.93899</lng>
</villes>
<villes>
<kp_ville>19021</kp_ville>
<region>Ile-de-France</region>
<departement>Yvelines</departement>
<ville>Saint-Martin-de-Bréthencourt</ville>
<code_postal>78660</code_postal>
<lat>48.50716</lat>
<lng>1.91605</lng>
</villes>
<villes>
<kp_ville>19022</kp_ville>
<region>Ile-de-France</region>
<departement>Yvelines</departement>
<ville>Sainte-Mesme</ville>
<code_postal>78730</code_postal>
<lat>48.53094</lat>
<lng>1.96057</lng>
</villes>
<villes>
<kp_ville>19023</kp_ville>
<region>Ile-de-France</region>
<departement>Yvelines</departement>
<ville>Sonchamp</ville>
<code_postal>78120</code_postal>
<lat>48.57503</lat>
<lng>1.87939</lng>
</villes>
<villes>
<kp_ville>19024</kp_ville>
<region>Ile-de-France</region>
<departement>Yvelines</departement>
<ville>Andrésy</ville>
<code_postal>78570</code_postal>
<lat>48.97983</lat>
<lng>2.05926</lng>
</villes>
<villes>
<kp_ville>19025</kp_ville>
<region>Ile-de-France</region>
<departement>Yvelines</departement>
<ville>Chanteloup-les-Vignes</ville>
<code_postal>78570</code_postal>
<lat>48.97874</lat>
<lng>2.03052</lng>
</villes>
<villes>
<kp_ville>19026</kp_ville>
<region>Ile-de-France</region>
<departement>Yvelines</departement>
<ville>Maurecourt</ville>
<code_postal>78780</code_postal>
<lat>48.99703</lat>
<lng>2.0618</lng>
</villes>
<villes>
<kp_ville>19027</kp_ville>
<region>Ile-de-France</region>
<departement>Yvelines</departement>
<ville>Chatou</ville>
<code_postal>78400</code_postal>
<lat>48.88988</lat>
<lng>2.15613</lng>
</villes>
<villes>
<kp_ville>19028</kp_ville>
<region>Ile-de-France</region>
<departement>Yvelines</departement>
<ville>Croissy-sur-Seine</ville>
<code_postal>78290</code_postal>
<lat>48.87956</lat>
<lng>2.14647</lng>
</villes>
<villes>
<kp_ville>19029</kp_ville>
<region>Ile-de-France</region>
<departement>Yvelines</departement>
<ville>Conflans-Sainte-Honorine</ville>
<code_postal>78700</code_postal>
<lat>48.99269</lat>
<lng>2.09326</lng>
</villes>
<villes>
<kp_ville>19030</kp_ville>
<region>Ile-de-France</region>
<departement>Yvelines</departement>
<ville>Carrières-sur-Seine</ville>
<code_postal>78420</code_postal>
<lat>48.90592</lat>
<lng>2.17739</lng>
</villes>
<villes>
<kp_ville>19031</kp_ville>
<region>Ile-de-France</region>
<departement>Yvelines</departement>
<ville>Houilles</ville>
<code_postal>78800</code_postal>
<lat>48.92622</lat>
<lng>2.18747</lng>
</villes>
<villes>
<kp_ville>19032</kp_ville>
<region>Ile-de-France</region>
<departement>Yvelines</departement>
<ville>Bougival</ville>
<code_postal>78380</code_postal>
<lat>48.86322</lat>
<lng>2.14068</lng>
</villes>
<villes>
<kp_ville>19033</kp_ville>
<region>Ile-de-France</region>
<departement>Yvelines</departement>
<ville>La Celle-Saint-Cloud</ville>
<code_postal>78170</code_postal>
<lat>48.85255</lat>
<lng>2.14341</lng>
</villes>
<villes>
<kp_ville>19034</kp_ville>
<region>Ile-de-France</region>
<departement>Yvelines</departement>
<ville>Fourqueux</ville>
<code_postal>78112</code_postal>
<lat>48.88459</lat>
<lng>2.06574</lng>
</villes>
<villes>
<kp_ville>19035</kp_ville>
<region>Ile-de-France</region>
<departement>Yvelines</departement>
<ville>Le Pecq</ville>
<code_postal>78230</code_postal>
<lat>48.89556</lat>
<lng>2.1023</lng>
</villes>
<villes>
<kp_ville>19036</kp_ville>
<region>Ile-de-France</region>
<departement>Yvelines</departement>
<ville>Mareil-Marly</ville>
<code_postal>78750</code_postal>
<lat>48.88242</lat>
<lng>2.0768</lng>
</villes>
<villes>
<kp_ville>19037</kp_ville>
<region>Ile-de-France</region>
<departement>Yvelines</departement>
<ville>Le Vésinet</ville>
<code_postal>78110</code_postal>
<lat>48.89225</lat>
<lng>2.13462</lng>
</villes>
<villes>
<kp_ville>19038</kp_ville>
<region>Ile-de-France</region>
<departement>Yvelines</departement>
<ville>Montesson</ville>
<code_postal>78360</code_postal>
<lat>48.90769</lat>
<lng>2.14904</lng>
</villes>
<villes>
<kp_ville>19039</kp_ville>
<region>Ile-de-France</region>
<departement>Yvelines</departement>
<ville>Le Mesnil-le-Roi</ville>
<code_postal>78600</code_postal>
<lat>48.93577</lat>
<lng>2.12575</lng>
</villes>
<villes>
<kp_ville>19040</kp_ville>
<region>Ile-de-France</region>
<departement>Yvelines</departement>
<ville>Maisons-Laffitte</ville>
<code_postal>78600</code_postal>
<lat>48.94705</lat>
<lng>2.14647</lng>
</villes>
<villes>
<kp_ville>19041</kp_ville>
<region>Ile-de-France</region>
<departement>Yvelines</departement>
<ville>Le Port-Marly</ville>
<code_postal>78560</code_postal>
<lat>48.87948</lat>
<lng>2.11178</lng>
</villes>
<villes>
<kp_ville>19042</kp_ville>
<region>Ile-de-France</region>
<departement>Yvelines</departement>
<ville>Louveciennes</ville>
<code_postal>78430</code_postal>
<lat>48.86258</lat>
<lng>2.11105</lng>
</villes>
<villes>
<kp_ville>19043</kp_ville>
<region>Ile-de-France</region>
<departement>Yvelines</departement>
<ville>Marly-le-Roi</ville>
<code_postal>78160</code_postal>
<lat>48.86672</lat>
<lng>2.09336</lng>
</villes>
<villes>
<kp_ville>19044</kp_ville>
<region>Ile-de-France</region>
<departement>Yvelines</departement>
<ville>Poissy</ville>
<code_postal>78300</code_postal>
<lat>48.92861</lat>
<lng>2.0418</lng>
</villes>
<villes>
<kp_ville>19045</kp_ville>
<region>Ile-de-France</region>
<departement>Yvelines</departement>
<ville>Carrières-sous-Poissy</ville>
<code_postal>78955</code_postal>
<lat>48.95087</lat>
<lng>2.03869</lng>
</villes>
<villes>
<kp_ville>19046</kp_ville>
<region>Ile-de-France</region>
<departement>Yvelines</departement>
<ville>Médan</ville>
<code_postal>78670</code_postal>
<lat>48.95492</lat>
<lng>1.99583</lng>
</villes>
<villes>
<kp_ville>19047</kp_ville>
<region>Ile-de-France</region>
<departement>Yvelines</departement>
<ville>Villennes-sur-Seine</ville>
<code_postal>78670</code_postal>
<lat>48.93931</lat>
<lng>1.99926</lng>
</villes>
<villes>
<kp_ville>19048</kp_ville>
<region>Ile-de-France</region>
<departement>Yvelines</departement>
<ville>Crespières</ville>
<code_postal>78121</code_postal>
<lat>48.88253</lat>
<lng>1.9219</lng>
</villes>
<villes>
<kp_ville>19049</kp_ville>
<region>Ile-de-France</region>
<departement>Yvelines</departement>
<ville>Davron</ville>
<code_postal>78810</code_postal>
<lat>48.86631</lat>
<lng>1.94522</lng>
</villes>
<villes>
<kp_ville>19050</kp_ville>
<region>Ile-de-France</region>
<departement>Yvelines</departement>
<ville>Les Alluets-le-Roi</ville>
<code_postal>78580</code_postal>
<lat>48.91419</lat>
<lng>1.91652</lng>
</villes>
<villes>
<kp_ville>19051</kp_ville>
<region>Ile-de-France</region>
<departement>Yvelines</departement>
<ville>Morainvilliers</ville>
<code_postal>78630</code_postal>
<lat>48.92813</lat>
<lng>1.93651</lng>
</villes>
<villes>
<kp_ville>19052</kp_ville>
<region>Ile-de-France</region>
<departement>Yvelines</departement>
<ville>Orgeval</ville>
<code_postal>78630</code_postal>
<lat>48.91971</lat>
<lng>1.97607</lng>
</villes>
<villes>
<kp_ville>19053</kp_ville>
<region>Ile-de-France</region>
<departement>Yvelines</departement>
<ville>Saint-Germain-en-Laye</ville>
<code_postal>78100</code_postal>
<lat>48.89873</lat>
<lng>2.0936</lng>
</villes>
<villes>
<kp_ville>19054</kp_ville>
<region>Ile-de-France</region>
<departement>Yvelines</departement>
<ville>Achères</ville>
<code_postal>78260</code_postal>
<lat>48.96016</lat>
<lng>2.06844</lng>
</villes>
<villes>
<kp_ville>19055</kp_ville>
<region>Ile-de-France</region>
<departement>Yvelines</departement>
<ville>Aigremont</ville>
<code_postal>78240</code_postal>
<lat>48.90383</lat>
<lng>2.01936</lng>
</villes>
<villes>
<kp_ville>19056</kp_ville>
<region>Ile-de-France</region>
<departement>Yvelines</departement>
<ville>Chambourcy</ville>
<code_postal>78240</code_postal>
<lat>48.90544</lat>
<lng>2.0395</lng>
</villes>
<villes>
<kp_ville>19057</kp_ville>
<region>Ile-de-France</region>
<departement>Yvelines</departement>
<ville>Bailly</ville>
<code_postal>78870</code_postal>
<lat>48.84047</lat>
<lng>2.0787</lng>
</villes>
<villes>
<kp_ville>19058</kp_ville>
<region>Ile-de-France</region>
<departement>Yvelines</departement>
<ville>Chavenay</ville>
<code_postal>78450</code_postal>
<lat>48.85319</lat>
<lng>1.98669</lng>
</villes>
<villes>
<kp_ville>19059</kp_ville>
<region>Ile-de-France</region>
<departement>Yvelines</departement>
<ville>Feucherolles</ville>
<code_postal>78810</code_postal>
<lat>48.87275</lat>
<lng>1.97258</lng>
</villes>
<villes>
<kp_ville>19060</kp_ville>
<region>Ile-de-France</region>
<departement>Yvelines</departement>
<ville>L'Etang-la-Ville</ville>
<code_postal>78620</code_postal>
<lat>48.86772</lat>
<lng>2.07011</lng>
</villes>
<villes>
<kp_ville>19061</kp_ville>
<region>Ile-de-France</region>
<departement>Yvelines</departement>
<ville>Noisy-le-Roi</ville>
<code_postal>78590</code_postal>
<lat>48.84637</lat>
<lng>2.05971</lng>
</villes>
<villes>
<kp_ville>19062</kp_ville>
<region>Ile-de-France</region>
<departement>Yvelines</departement>
<ville>Rennemoulin</ville>
<code_postal>78590</code_postal>
<lat>48.83453</lat>
<lng>2.04444</lng>
</villes>
<villes>
<kp_ville>19063</kp_ville>
<region>Ile-de-France</region>
<departement>Yvelines</departement>
<ville>Saint-Nom-la-Bretèche</ville>
<code_postal>78860</code_postal>
<lat>48.85577</lat>
<lng>2.01898</lng>
</villes>
<villes>
<kp_ville>19064</kp_ville>
<region>Ile-de-France</region>
<departement>Yvelines</departement>
<ville>Villepreux</ville>
<code_postal>78450</code_postal>
<lat>48.83401</lat>
<lng>2.01204</lng>
</villes>
<villes>
<kp_ville>19065</kp_ville>
<region>Ile-de-France</region>
<departement>Yvelines</departement>
<ville>Sartrouville</ville>
<code_postal>78500</code_postal>
<lat>48.94583</lat>
<lng>2.17228</lng>
</villes>
<villes>
<kp_ville>19066</kp_ville>
<region>Ile-de-France</region>
<departement>Yvelines</departement>
<ville>Triel-sur-Seine</ville>
<code_postal>78510</code_postal>
<lat>48.982</lat>
<lng>2.00248</lng>
</villes>
<villes>
<kp_ville>19067</kp_ville>
<region>Ile-de-France</region>
<departement>Yvelines</departement>
<ville>Verneuil-sur-Seine</ville>
<code_postal>78480</code_postal>
<lat>48.98367</lat>
<lng>1.96599</lng>
</villes>
<villes>
<kp_ville>19068</kp_ville>
<region>Ile-de-France</region>
<departement>Yvelines</departement>
<ville>Vernouillet</ville>
<code_postal>78540</code_postal>
<lat>48.97158</lat>
<lng>1.98393</lng>
</villes>
<villes>
<kp_ville>19069</kp_ville>
<region>Ile-de-France</region>
<departement>Yvelines</departement>
<ville>Le Chesnay</ville>
<code_postal>78150</code_postal>
<lat>48.81875</lat>
<lng>2.1311</lng>
</villes>
<villes>
<kp_ville>19070</kp_ville>
<region>Ile-de-France</region>
<departement>Yvelines</departement>
<ville>Rocquencourt</ville>
<code_postal>78150</code_postal>
<lat>48.83641</lat>
<lng>2.11168</lng>
</villes>
<villes>
<kp_ville>19071</kp_ville>
<region>Ile-de-France</region>
<departement>Yvelines</departement>
<ville>Guyancourt</ville>
<code_postal>78280</code_postal>
<lat>48.77173</lat>
<lng>2.07015</lng>
</villes>
<villes>
<kp_ville>19072</kp_ville>
<region>Ile-de-France</region>
<departement>Yvelines</departement>
<ville>Montigny-le-Bretonneux</ville>
<code_postal>78180</code_postal>
<lat>48.76963</lat>
<lng>2.03409</lng>
</villes>
<villes>
<kp_ville>19073</kp_ville>
<region>Ile-de-France</region>
<departement>Yvelines</departement>
<ville>Les Clayes-sous-Bois</ville>
<code_postal>78340</code_postal>
<lat>48.82085</lat>
<lng>1.98318</lng>
</villes>
<villes>
<kp_ville>19074</kp_ville>
<region>Ile-de-France</region>
<departement>Yvelines</departement>
<ville>Plaisir</ville>
<code_postal>78370</code_postal>
<lat>48.8167</lat>
<lng>1.94855</lng>
</villes>
<villes>
<kp_ville>19075</kp_ville>
<region>Ile-de-France</region>
<departement>Yvelines</departement>
<ville>Thiverval-Grignon</ville>
<code_postal>78850</code_postal>
<lat>48.84454</lat>
<lng>1.9424</lng>
</villes>
<villes>
<kp_ville>19076</kp_ville>
<region>Ile-de-France</region>
<departement>Yvelines</departement>
<ville>Bois-d'Arcy</ville>
<code_postal>78390</code_postal>
<lat>48.80167</lat>
<lng>2.0188</lng>
</villes>
<villes>
<kp_ville>19077</kp_ville>
<region>Ile-de-France</region>
<departement>Yvelines</departement>
<ville>Fontenay-le-Fleury</ville>
<code_postal>78330</code_postal>
<lat>48.81135</lat>
<lng>2.04492</lng>
</villes>
<villes>
<kp_ville>19078</kp_ville>
<region>Ile-de-France</region>
<departement>Yvelines</departement>
<ville>Saint-Cyr-l'Ecole</ville>
<code_postal>78210</code_postal>
<lat>48.80339</lat>
<lng>2.07275</lng>
</villes>
<villes>
<kp_ville>19079</kp_ville>
<region>Ile-de-France</region>
<departement>Yvelines</departement>
<ville>Trappes</ville>
<code_postal>78190</code_postal>
<lat>48.77852</lat>
<lng>1.99906</lng>
</villes>
<villes>
<kp_ville>19080</kp_ville>
<region>Ile-de-France</region>
<departement>Yvelines</departement>
<ville>Vélizy-Villacoublay</ville>
<code_postal>78140</code_postal>
<lat>48.78283</lat>
<lng>2.19001</lng>
</villes>
<villes>
<kp_ville>19081</kp_ville>
<region>Ile-de-France</region>
<departement>Yvelines</departement>
<ville>Versailles</ville>
<code_postal>78000</code_postal>
<lat>48.80233</lat>
<lng>2.12982</lng>
</villes>
<villes>
<kp_ville>19082</kp_ville>
<region>Ile-de-France</region>
<departement>Yvelines</departement>
<ville>Buc</ville>
<code_postal>78530</code_postal>
<lat>48.77671</lat>
<lng>2.12802</lng>
</villes>
<villes>
<kp_ville>19083</kp_ville>
<region>Ile-de-France</region>
<departement>Yvelines</departement>
<ville>Châteaufort</ville>
<code_postal>78117</code_postal>
<lat>48.73638</lat>
<lng>2.09123</lng>
</villes>
<villes>
<kp_ville>19084</kp_ville>
<region>Ile-de-France</region>
<departement>Yvelines</departement>
<ville>Jouy-en-Josas</ville>
<code_postal>78350</code_postal>
<lat>48.7633</lat>
<lng>2.1683</lng>
</villes>
<villes>
<kp_ville>19085</kp_ville>
<region>Ile-de-France</region>
<departement>Yvelines</departement>
<ville>Les Loges-en-Josas</ville>
<code_postal>78350</code_postal>
<lat>48.76472</lat>
<lng>2.14035</lng>
</villes>
<villes>
<kp_ville>19086</kp_ville>
<region>Ile-de-France</region>
<departement>Yvelines</departement>
<ville>Toussus-le-Noble</ville>
<code_postal>78117</code_postal>
<lat>48.7458</lat>
<lng>2.11405</lng>
</villes>
<villes>
<kp_ville>19087</kp_ville>
<region>Ile-de-France</region>
<departement>Yvelines</departement>
<ville>Viroflay</ville>
<code_postal>78220</code_postal>
<lat>48.80232</lat>
<lng>2.17081</lng>
</villes>
</france>
